[{"lat": 35.993683, "lng": 119.404716, "label": "Spodiopsar cineraceus", "date": "2026/01/03", "source": "GBIF", "count": 1}, {"lat": 31.442536, "lng": 120.205378, "label": "Fulica atra", "date": "2026/01/03", "source": "GBIF", "count": 1}, {"lat": 39.883707, "lng": 116.400332, "label": "Turdus naumanni", "date": "2026/01/03", "source": "GBIF", "count": 1}, {"lat": 32.184416, "lng": 119.507536, "label": "Pycnonotus sinensis", "date": "2026/01/03", "source": "GBIF", "count": 1}, {"lat": 20.044285, "lng": 110.320346, "label": "Cyanopica cyanus", "date": "2026/01/02", "source": "GBIF", "count": 1}, {"lat": 30.254034, "lng": 120.123515, "label": "Hypsipetes leucocephalus", "date": "2026/01/02", "source": "GBIF", "count": 1}, {"lat": 40.081354, "lng": 116.044522, "label": "Prunella montanella", "date": "2026/01/03", "source": "GBIF", "count": 1}, {"lat": 40.013544, "lng": 116.37955, "label": "Alcedo atthis", "date": "2026/01/03", "source": "GBIF", "count": 1}, {"lat": 28.374088, "lng": 119.983526, "label": "Mergus squamatus", "date": "2026/01/03", "source": "GBIF", "count": 1}, {"lat": 30.20768, "lng": 120.14013, "label": "Periparus venustulus", "date": "2026/01/04", "source": "GBIF", "count": 1}, {"lat": 40.011684, "lng": 116.315896, "label": "Tachybaptus ruficollis", "date": "2026/01/02", "source": "GBIF", "count": 1}, {"lat": 39.883928, "lng": 116.414088, "label": "Turdus mandarinus", "date": "2026/01/03", "source": "GBIF", "count": 1}, {"lat": 39.81353, "lng": 116.241257, "label": "Streptopelia orientalis", "date": "2026/01/03", "source": "GBIF", "count": 1}, {"lat": 34.551677, "lng": 112.476432, "label": "Tichodroma muraria", "date": "2026/01/02", "source": "GBIF", "count": 1}, {"lat": 31.076343, "lng": 121.176621, "label": "Emberiza spodocephala", "date": "2026/01/03", "source": "GBIF", "count": 1}, {"lat": 23.294369, "lng": 113.7208, "label": "Ardeola bacchus", "date": "2026/01/03", "source": "GBIF", "count": 1}, {"lat": 40.013488, "lng": 116.380277, "label": "Gallinula chloropus", "date": "2026/01/01", "source": "GBIF", "count": 1}, {"lat": 36.54983, "lng": 116.823623, "label": "Anas zonorhyncha", "date": "2026/01/03", "source": "GBIF", "count": 1}, {"lat": 30.653538, "lng": 104.124825, "label": "Pterorhinus sannio", "date": "2026/01/03", "source": "GBIF", "count": 1}, {"lat": 39.813395, "lng": 116.241513, "label": "Upupa epops", "date": "2026/01/03", "source": "GBIF", "count": 1}, {"lat": 31.550971, "lng": 120.488829, "label": "Pica serica", "date": "2026/01/02", "source": "GBIF", "count": 1}, {"lat": 19.127438, "lng": 108.654342, "label": "Ardea alba", "date": "2026/01/02", "source": "GBIF", "count": 1}, {"lat": 28.3712, "lng": 119.81772, "label": "Motacilla cinerea", "date": "2026/01/03", "source": "GBIF", "count": 1}, {"lat": 23.290914, "lng": 113.718341, "label": "Anthus richardi", "date": "2026/01/03", "source": "GBIF", "count": 1}, {"lat": 39.925761, "lng": 116.398032, "label": "Turdus ruficollis", "date": "2026/01/04", "source": "GBIF", "count": 1}, {"lat": 31.001308, "lng": 104.222383, "label": "Aegithalos concinnus", "date": "2026/01/05", "source": "GBIF", "count": 1}, {"lat": 30.646587, "lng": 104.181463, "label": "Copsychus saularis", "date": "2026/01/02", "source": "GBIF", "count": 1}, {"lat": 22.502213, "lng": 113.944427, "label": "Passer montanus", "date": "2026/01/03", "source": "GBIF", "count": 1}, {"lat": 40.015671, "lng": 116.400208, "label": "Troglodytes troglodytes", "date": "2026/01/03", "source": "GBIF", "count": 1}, {"lat": 20.043406, "lng": 110.320269, "label": "Lanius schach", "date": "2026/01/02", "source": "GBIF", "count": 1}, {"lat": 34.299195, "lng": 108.957288, "label": "Pterorhinus sannio", "date": "2026/01/01", "source": "GBIF", "count": 1}, {"lat": 30.925189, "lng": 117.911175, "label": "Aythya baeri", "date": "2026/01/03", "source": "GBIF", "count": 1}, {"lat": 34.680263, "lng": 112.486119, "label": "Tadorna ferruginea", "date": "2026/01/03", "source": "GBIF", "count": 1}, {"lat": 40.376422, "lng": 115.427308, "label": "Emberiza leucocephalos", "date": "2026/01/03", "source": "GBIF", "count": 1}, {"lat": 31.237889, "lng": 121.458195, "label": "Passer montanus", "date": "2026/01/03", "source": "GBIF", "count": 1}, {"lat": 35.979, "lng": 119.404053, "label": "Egretta garzetta", "date": "2026/01/05", "source": "GBIF", "count": 1}, {"lat": 36.551109, "lng": 116.824631, "label": "Fringilla montifringilla", "date": "2026/01/02", "source": "GBIF", "count": 1}, {"lat": 30.57355, "lng": 114.334587, "label": "Podiceps cristatus", "date": "2026/01/03", "source": "GBIF", "count": 1}, {"lat": 36.550255, "lng": 116.824518, "label": "Anthus hodgsoni", "date": "2026/01/01", "source": "GBIF", "count": 1}, {"lat": 40.013544, "lng": 116.37955, "label": "Urocissa erythroryncha", "date": "2026/01/03", "source": "GBIF", "count": 1}, {"lat": 39.837038, "lng": 116.220557, "label": "Mergellus albellus", "date": "2026/01/03", "source": "GBIF", "count": 1}, {"lat": 32.162058, "lng": 114.132453, "label": "Gallinula chloropus", "date": "2026/01/02", "source": "GBIF", "count": 1}, {"lat": 35.987762, "lng": 119.404091, "label": "Passer montanus", "date": "2026/01/02", "source": "GBIF", "count": 1}, {"lat": 36.605189, "lng": 117.177803, "label": "Gallinula chloropus", "date": "2026/01/01", "source": "GBIF", "count": 1}, {"lat": 30.643695, "lng": 104.187637, "label": "Fulica atra", "date": "2026/01/02", "source": "GBIF", "count": 1}, {"lat": 40.0163, "lng": 116.378195, "label": "Aegithalos glaucogularis", "date": "2026/01/01", "source": "GBIF", "count": 1}, {"lat": 23.184263, "lng": 113.358627, "label": "Pycnonotus sinensis", "date": "2026/01/02", "source": "GBIF", "count": 1}, {"lat": 40.011631, "lng": 116.391836, "label": "Dendrocopos major", "date": "2026/01/03", "source": "GBIF", "count": 1}, {"lat": 30.292954, "lng": 113.86341, "label": "Sinosuthora webbiana", "date": "2026/01/05", "source": "GBIF", "count": 1}, {"lat": 36.785059, "lng": 117.981726, "label": "Gallinago gallinago", "date": "2026/01/03", "source": "GBIF", "count": 1}, {"lat": 24.545436, "lng": 117.998069, "label": "Aythya fuligula", "date": "2026/01/01", "source": "GBIF", "count": 1}, {"lat": 40.013544, "lng": 116.37955, "label": "Troglodytes troglodytes", "date": "2026/01/03", "source": "GBIF", "count": 1}, {"lat": 30.64297, "lng": 104.185355, "label": "Anas platyrhynchos", "date": "2026/01/02", "source": "GBIF", "count": 1}, {"lat": 34.202268, "lng": 117.13649, "label": "Cyanopica cyanus", "date": "2026/01/05", "source": "GBIF", "count": 1}, {"lat": 31.218696, "lng": 121.550469, "label": "Phoenicurus auroreus", "date": "2026/01/05", "source": "GBIF", "count": 1}, {"lat": 31.213795, "lng": 121.545934, "label": "Parus cinereus", "date": "2026/01/05", "source": "GBIF", "count": 1}, {"lat": 30.254034, "lng": 120.123515, "label": "Tarsiger cyanurus", "date": "2026/01/02", "source": "GBIF", "count": 1}, {"lat": 40.197928, "lng": 116.314361, "label": "Paradoxornis heudei", "date": "2026/01/01", "source": "GBIF", "count": 1}, {"lat": 40.017839, "lng": 116.390389, "label": "Ardea cinerea", "date": "2026/01/03", "source": "GBIF", "count": 1}, {"lat": 40.0794, "lng": 116.048292, "label": "Carpodacus davidianus", "date": "2026/01/03", "source": "GBIF", "count": 1}, {"lat": 40.078822, "lng": 116.046412, "label": "Falco tinnunculus", "date": "2026/01/03", "source": "GBIF", "count": 1}, {"lat": 24.448695, "lng": 112.478297, "label": "Phoenicurus fuliginosus", "date": "2026/01/01", "source": "GBIF", "count": 1}, {"lat": 32.162108, "lng": 114.129181, "label": "Columba livia", "date": "2026/01/02", "source": "GBIF", "count": 1}, {"lat": 31.546568, "lng": 120.483765, "label": "Passer montanus", "date": "2026/01/02", "source": "GBIF", "count": 1}, {"lat": 19.724277, "lng": 109.242182, "label": "Charadrius leschenaultii", "date": "2026/01/02", "source": "GBIF", "count": 1}, {"lat": 30.316595, "lng": 121.16092, "label": "Emberiza spodocephala", "date": "2026/01/02", "source": "GBIF", "count": 1}, {"lat": 30.54445, "lng": 114.302658, "label": "Cyanopica cyanus", "date": "2026/01/01", "source": "GBIF", "count": 1}, {"lat": 31.386849, "lng": 104.812444, "label": "Ichthyaetus ichthyaetus", "date": "2026/01/02", "source": "GBIF", "count": 1}, {"lat": 40.079291, "lng": 116.048326, "label": "Carpodacus davidianus", "date": "2026/01/03", "source": "GBIF", "count": 1}, {"lat": 30.949498, "lng": 117.885084, "label": "Aythya nyroca", "date": "2026/01/03", "source": "GBIF", "count": 1}, {"lat": 40.031537, "lng": 116.400515, "label": "Poecile palustris", "date": "2026/01/01", "source": "GBIF", "count": 1}, {"lat": 25.085, "lng": 102.772, "label": "Minla cyanouroptera", "date": "2026/01/02", "source": "GBIF", "count": 1}, {"lat": 36.06357, "lng": 120.350305, "label": "Chloris sinica", "date": "2026/01/03", "source": "GBIF", "count": 1}, {"lat": 40.013544, "lng": 116.37955, "label": "Gallinula chloropus", "date": "2026/01/03", "source": "GBIF", "count": 1}, {"lat": 30.254034, "lng": 120.123515, "label": "Eophona personata", "date": "2026/01/02", "source": "GBIF", "count": 1}, {"lat": 39.931371, "lng": 116.406835, "label": "Falco tinnunculus", "date": "2026/01/05", "source": "GBIF", "count": 1}, {"lat": 40.012757, "lng": 116.381365, "label": "Sinosuthora webbiana", "date": "2026/01/01", "source": "GBIF", "count": 1}, {"lat": 33.603528, "lng": 120.50428, "label": "Anas acuta", "date": "2026/01/02", "source": "GBIF", "count": 1}, {"lat": 50.386374, "lng": 119.712123, "label": "Surnia ulula", "date": "2026/01/03", "source": "GBIF", "count": 1}, {"lat": 40.078786, "lng": 116.047642, "label": "Carpodacus davidianus", "date": "2026/01/03", "source": "GBIF", "count": 1}, {"lat": 31.387164, "lng": 104.811697, "label": "Platalea leucorodia", "date": "2026/01/02", "source": "GBIF", "count": 1}, {"lat": 30.254034, "lng": 120.123515, "label": "Tachybaptus ruficollis", "date": "2026/01/02", "source": "GBIF", "count": 1}, {"lat": 30.254034, "lng": 120.123515, "label": "Alcedo atthis", "date": "2026/01/02", "source": "GBIF", "count": 1}, {"lat": 31.311591, "lng": 121.452358, "label": "Nycticorax nycticorax", "date": "2026/01/03", "source": "GBIF", "count": 1}, {"lat": 19.124958, "lng": 108.656787, "label": "Dicaeum cruentatum", "date": "2026/01/02", "source": "GBIF", "count": 1}, {"lat": 29.61506, "lng": 103.473377, "label": "Spizixos semitorques", "date": "2026/01/05", "source": "GBIF", "count": 1}, {"lat": 30.643945, "lng": 104.185783, "label": "Passer montanus", "date": "2026/01/02", "source": "GBIF", "count": 1}, {"lat": 40.01112, "lng": 116.31472, "label": "Anser cygnoides", "date": "2026/01/02", "source": "GBIF", "count": 1}, {"lat": 35.614479, "lng": 110.666278, "label": "Turdus mandarinus", "date": "2026/01/04", "source": "GBIF", "count": 1}, {"lat": 23.292873, "lng": 113.716203, "label": "Emberiza pusilla", "date": "2026/01/03", "source": "GBIF", "count": 1}, {"lat": 30.268056, "lng": 120.06629, "label": "Bambusicola thoracicus", "date": "2026/01/03", "source": "GBIF", "count": 1}, {"lat": 31.38711, "lng": 104.812544, "label": "Anas acuta", "date": "2026/01/02", "source": "GBIF", "count": 1}, {"lat": 40.135936, "lng": 116.301968, "label": "Coccothraustes coccothraustes", "date": "2026/01/01", "source": "GBIF", "count": 1}, {"lat": 29.936394, "lng": 118.006176, "label": "Lophura nycthemera", "date": "2026/01/03", "source": "GBIF", "count": 1}, {"lat": 30.6673, "lng": 103.833878, "label": "Tringa ochropus", "date": "2026/01/02", "source": "GBIF", "count": 1}, {"lat": 32.053273, "lng": 118.833804, "label": "Gallinula chloropus", "date": "2026/01/01", "source": "GBIF", "count": 1}, {"lat": 40.012746, "lng": 116.29943, "label": "Troglodytes troglodytes", "date": "2026/01/02", "source": "GBIF", "count": 1}, {"lat": 30.207246, "lng": 120.887671, "label": "Sibirionetta formosa", "date": "2026/01/03", "source": "GBIF", "count": 1}, {"lat": 19.125565, "lng": 108.65541, "label": "Pycnonotus sinensis", "date": "2026/01/02", "source": "GBIF", "count": 1}, {"lat": 30.20768, "lng": 120.14013, "label": "Fulica atra", "date": "2026/01/04", "source": "GBIF", "count": 1}, {"lat": 30.31277, "lng": 113.882405, "label": "Phoenicurus auroreus", "date": "2026/01/05", "source": "GBIF", "count": 1}, {"lat": 35.925203, "lng": 120.186683, "label": "Chroicocephalus ridibundus", "date": "2026/01/03", "source": "GBIF", "count": 1}, {"lat": 25.085, "lng": 102.772, "label": "Pycnonotus xanthorrhous", "date": "2026/01/02", "source": "GBIF", "count": 1}, {"lat": 24.448695, "lng": 112.478297, "label": "Phoenicurus auroreus", "date": "2026/01/01", "source": "GBIF", "count": 1}, {"lat": 22.607147, "lng": 113.889173, "label": "Ardea modesta", "date": "2026/01/02", "source": "GBIF", "count": 1}, {"lat": 31.436866, "lng": 120.211343, "label": "Fulica atra", "date": "2026/01/03", "source": "GBIF", "count": 1}, {"lat": 23.294566, "lng": 113.720945, "label": "Prinia inornata", "date": "2026/01/03", "source": "GBIF", "count": 1}, {"lat": 22.639667, "lng": 113.862778, "label": "Egretta garzetta", "date": "2026/01/02", "source": "GBIF", "count": 1}, {"lat": 31.075984, "lng": 121.172957, "label": "Passer montanus", "date": "2026/01/03", "source": "GBIF", "count": 1}, {"lat": 35.968189, "lng": 119.422951, "label": "Turdus mandarinus", "date": "2026/01/03", "source": "GBIF", "count": 1}, {"lat": 28.381477, "lng": 119.841693, "label": "Mareca falcata", "date": "2026/01/03", "source": "GBIF", "count": 1}, {"lat": 23.289812, "lng": 113.71946, "label": "Chloris sinica", "date": "2026/01/03", "source": "GBIF", "count": 1}, {"lat": 30.268056, "lng": 120.06629, "label": "Aegithalos glaucogularis", "date": "2026/01/03", "source": "GBIF", "count": 1}, {"lat": 25.14337, "lng": 102.741083, "label": "Pycnonotus xanthorrhous", "date": "2026/01/03", "source": "GBIF", "count": 1}, {"lat": 26.061842, "lng": 119.263973, "label": "Phylloscopus proregulus", "date": "2026/01/03", "source": "GBIF", "count": 1}, {"lat": 27.503776, "lng": 119.478672, "label": "Gallinula chloropus", "date": "2026/01/03", "source": "GBIF", "count": 1}, {"lat": 36.127454, "lng": 115.757719, "label": "Lanius schach", "date": "2026/01/02", "source": "GBIF", "count": 1}, {"lat": 39.566075, "lng": 113.187142, "label": "Pica serica", "date": "2026/01/03", "source": "GBIF", "count": 1}, {"lat": 24.579818, "lng": 117.915752, "label": "Chloris sinica", "date": "2026/01/01", "source": "GBIF", "count": 1}, {"lat": 30.268056, "lng": 120.06629, "label": "Glaucidium cuculoides", "date": "2026/01/03", "source": "GBIF", "count": 1}, {"lat": 31.143286, "lng": 121.439697, "label": "Tarsiger cyanurus", "date": "2026/01/04", "source": "GBIF", "count": 1}, {"lat": 18.68831, "lng": 110.392047, "label": "Tringa nebularia", "date": "2026/01/04", "source": "GBIF", "count": 1}, {"lat": 31.044568, "lng": 121.491768, "label": "Bombycilla japonica", "date": "2026/01/04", "source": "GBIF", "count": 1}, {"lat": 40.018014, "lng": 116.390256, "label": "Anser cygnoides", "date": "2026/01/01", "source": "GBIF", "count": 1}, {"lat": 31.445061, "lng": 120.210025, "label": "Pycnonotus sinensis", "date": "2026/01/03", "source": "GBIF", "count": 1}, {"lat": 30.315357, "lng": 113.886415, "label": "Phoenicurus auroreus", "date": "2026/01/05", "source": "GBIF", "count": 1}, {"lat": 35.980278, "lng": 119.404144, "label": "Eophona migratoria", "date": "2026/01/01", "source": "GBIF", "count": 1}, {"lat": 22.625738, "lng": 113.808395, "label": "Pycnonotus sinensis", "date": "2026/01/04", "source": "GBIF", "count": 1}, {"lat": 24.555828, "lng": 117.981989, "label": "Hirundo rustica", "date": "2026/01/02", "source": "GBIF", "count": 1}, {"lat": 29.565684, "lng": 106.551184, "label": "Copsychus saularis", "date": "2026/01/05", "source": "GBIF", "count": 1}, {"lat": 39.883158, "lng": 116.412343, "label": "Pycnonotus sinensis", "date": "2026/01/03", "source": "GBIF", "count": 1}, {"lat": 31.443321, "lng": 120.204523, "label": "Sinosuthora webbiana", "date": "2026/01/03", "source": "GBIF", "count": 1}, {"lat": 30.254034, "lng": 120.123515, "label": "Turdus pallidus", "date": "2026/01/02", "source": "GBIF", "count": 1}, {"lat": 37.744755, "lng": 119.142608, "label": "Mergellus albellus", "date": "2026/01/02", "source": "GBIF", "count": 1}, {"lat": 39.164775, "lng": 117.218262, "label": "Pica serica", "date": "2026/01/03", "source": "GBIF", "count": 1}, {"lat": 31.443125, "lng": 120.207575, "label": "Fulica atra", "date": "2026/01/03", "source": "GBIF", "count": 1}, {"lat": 31.445061, "lng": 120.210025, "label": "Pycnonotus sinensis", "date": "2026/01/03", "source": "GBIF", "count": 1}, {"lat": 34.001919, "lng": 109.096467, "label": "Pica serica", "date": "2026/01/02", "source": "GBIF", "count": 1}, {"lat": 35.974766, "lng": 119.398796, "label": "Spodiopsar cineraceus", "date": "2026/01/01", "source": "GBIF", "count": 1}, {"lat": 40.0125, "lng": 116.391869, "label": "Picus canus", "date": "2026/01/01", "source": "GBIF", "count": 1}, {"lat": 23.29285, "lng": 113.71657, "label": "Lanius schach", "date": "2026/01/03", "source": "GBIF", "count": 1}, {"lat": 19.128822, "lng": 108.662336, "label": "Saxicola stejnegeri", "date": "2026/01/03", "source": "GBIF", "count": 1}, {"lat": 35.614316, "lng": 110.666307, "label": "Garrulax davidi", "date": "2026/01/04", "source": "GBIF", "count": 1}, {"lat": 30.20768, "lng": 120.14013, "label": "Aegithalos concinnus", "date": "2026/01/04", "source": "GBIF", "count": 1}, {"lat": 30.20768, "lng": 120.14013, "label": "Anthus hodgsoni", "date": "2026/01/04", "source": "GBIF", "count": 1}, {"lat": 19.125567, "lng": 108.655406, "label": "Pycnonotus sinensis", "date": "2026/01/02", "source": "GBIF", "count": 1}, {"lat": 31.25322, "lng": 121.648947, "label": "Parus cinereus", "date": "2026/01/01", "source": "GBIF", "count": 1}, {"lat": 30.658288, "lng": 104.126442, "label": "Egretta garzetta", "date": "2026/01/03", "source": "GBIF", "count": 1}, {"lat": 35.981251, "lng": 119.397865, "label": "Gallinula chloropus", "date": "2026/01/05", "source": "GBIF", "count": 1}, {"lat": 30.644603, "lng": 104.184005, "label": "Aegithalos concinnus", "date": "2026/01/02", "source": "GBIF", "count": 1}, {"lat": 36.127636, "lng": 115.756788, "label": "Tringa ochropus", "date": "2026/01/02", "source": "GBIF", "count": 1}, {"lat": 37.73118, "lng": 119.004704, "label": "Ciconia boyciana", "date": "2026/01/02", "source": "GBIF", "count": 1}, {"lat": 31.443691, "lng": 120.210017, "label": "Egretta garzetta", "date": "2026/01/03", "source": "GBIF", "count": 1}, {"lat": 40.038462, "lng": 115.502529, "label": "Sitta europaea", "date": "2026/01/01", "source": "GBIF", "count": 1}, {"lat": 21.350934, "lng": 110.208904, "label": "Charadrius leschenaultii", "date": "2026/01/01", "source": "GBIF", "count": 1}, {"lat": 22.649309, "lng": 114.294375, "label": "Dicaeum ignipectus", "date": "2026/01/01", "source": "GBIF", "count": 1}, {"lat": 35.980488, "lng": 119.403915, "label": "Tarsiger cyanurus", "date": "2026/01/02", "source": "GBIF", "count": 1}, {"lat": 40.080789, "lng": 116.0445, "label": "Garrulax davidi", "date": "2026/01/03", "source": "GBIF", "count": 1}, {"lat": 40.030287, "lng": 116.400662, "label": "Pica serica", "date": "2026/01/01", "source": "GBIF", "count": 1}, {"lat": 31.952539, "lng": 117.383442, "label": "Gallinula chloropus", "date": "2026/01/01", "source": "GBIF", "count": 1}, {"lat": 33.943432, "lng": 118.284756, "label": "Phoenicurus auroreus", "date": "2026/01/03", "source": "GBIF", "count": 1}, {"lat": 40.090514, "lng": 113.288567, "label": "Streptopelia decaocto", "date": "2026/01/01", "source": "GBIF", "count": 1}, {"lat": 40.078738, "lng": 116.047457, "label": "Carpodacus davidianus", "date": "2026/01/03", "source": "GBIF", "count": 1}, {"lat": 23.294613, "lng": 113.720807, "label": "Saxicola stejnegeri", "date": "2026/01/03", "source": "GBIF", "count": 1}, {"lat": 31.609784, "lng": 120.742585, "label": "Nycticorax nycticorax", "date": "2026/01/01", "source": "GBIF", "count": 1}, {"lat": 23.295918, "lng": 113.719234, "label": "Lanius schach", "date": "2026/01/03", "source": "GBIF", "count": 1}, {"lat": 31.440437, "lng": 120.210959, "label": "Fulica atra", "date": "2026/01/03", "source": "GBIF", "count": 1}, {"lat": 36.063182, "lng": 120.350861, "label": "Eophona migratoria", "date": "2026/01/05", "source": "GBIF", "count": 1}, {"lat": 31.143363, "lng": 121.440139, "label": "Eumyias thalassinus", "date": "2026/01/04", "source": "GBIF", "count": 1}, {"lat": 36.064232, "lng": 120.345262, "label": "Gallinula chloropus", "date": "2026/01/05", "source": "GBIF", "count": 1}, {"lat": 31.43921, "lng": 120.209283, "label": "Egretta garzetta", "date": "2026/01/03", "source": "GBIF", "count": 1}, {"lat": 23.292797, "lng": 113.720625, "label": "Phoenicurus auroreus", "date": "2026/01/03", "source": "GBIF", "count": 1}, {"lat": 23.183794, "lng": 113.525976, "label": "Anthus hodgsoni", "date": "2026/01/03", "source": "GBIF", "count": 1}, {"lat": 40.085417, "lng": 116.047781, "label": "Buteo japonicus", "date": "2026/01/03", "source": "GBIF", "count": 1}, {"lat": 30.883152, "lng": 121.663868, "label": "Egretta garzetta", "date": "2026/01/01", "source": "GBIF", "count": 1}, {"lat": 39.926586, "lng": 116.398626, "label": "Turdus ruficollis", "date": "2026/01/04", "source": "GBIF", "count": 1}, {"lat": 30.646395, "lng": 104.181495, "label": "Anas zonorhyncha", "date": "2026/01/02", "source": "GBIF", "count": 1}, {"lat": 22.510303, "lng": 114.039208, "label": "Tringa totanus", "date": "2026/01/01", "source": "GBIF", "count": 1}, {"lat": 35.961906, "lng": 119.420967, "label": "Fringilla montifringilla", "date": "2026/01/04", "source": "GBIF", "count": 1}, {"lat": 40.0163, "lng": 116.378195, "label": "Alcedo atthis", "date": "2026/01/01", "source": "GBIF", "count": 1}, {"lat": 40.027036, "lng": 116.381406, "label": "Parus cinereus", "date": "2026/01/03", "source": "GBIF", "count": 1}, {"lat": 25.085, "lng": 102.772, "label": "Sitta nagaensis", "date": "2026/01/02", "source": "GBIF", "count": 1}, {"lat": 40.019587, "lng": 116.381222, "label": "Passer montanus", "date": "2026/01/01", "source": "GBIF", "count": 1}, {"lat": 37.758563, "lng": 119.164272, "label": "Cygnus cygnus", "date": "2026/01/02", "source": "GBIF", "count": 1}, {"lat": 29.947566, "lng": 118.01076, "label": "Motacilla cinerea", "date": "2026/01/03", "source": "GBIF", "count": 1}, {"lat": 30.254034, "lng": 120.123515, "label": "Copsychus saularis", "date": "2026/01/02", "source": "GBIF", "count": 1}, {"lat": 26.044394, "lng": 119.1984, "label": "Pycnonotus aurigaster", "date": "2026/01/04", "source": "GBIF", "count": 1}, {"lat": 30.268056, "lng": 120.06629, "label": "Urocissa erythroryncha", "date": "2026/01/03", "source": "GBIF", "count": 1}, {"lat": 36.060934, "lng": 120.335455, "label": "Parus cinereus", "date": "2026/01/03", "source": "GBIF", "count": 1}, {"lat": 28.3712, "lng": 119.81772, "label": "Phalacrocorax carbo", "date": "2026/01/03", "source": "GBIF", "count": 1}, {"lat": 30.20768, "lng": 120.14013, "label": "Streptopelia orientalis", "date": "2026/01/04", "source": "GBIF", "count": 1}, {"lat": 26.152222, "lng": 119.29065, "label": "Pycnonotus jocosus", "date": "2026/01/02", "source": "GBIF", "count": 1}, {"lat": 25.085, "lng": 102.772, "label": "Pycnonotus xanthorrhous", "date": "2026/01/02", "source": "GBIF", "count": 1}, {"lat": 30.21157, "lng": 120.789093, "label": "Calcarius lapponicus", "date": "2026/01/03", "source": "GBIF", "count": 1}, {"lat": 35.979424, "lng": 119.404495, "label": "Aegithalos glaucogularis", "date": "2026/01/05", "source": "GBIF", "count": 1}, {"lat": 30.304312, "lng": 113.874053, "label": "Eophona migratoria", "date": "2026/01/05", "source": "GBIF", "count": 1}, {"lat": 33.999282, "lng": 109.096067, "label": "Trochalopteron elliotii", "date": "2026/01/02", "source": "GBIF", "count": 1}, {"lat": 31.60982, "lng": 120.742528, "label": "Fulica atra", "date": "2026/01/01", "source": "GBIF", "count": 1}, {"lat": 31.258503, "lng": 121.645952, "label": "Tachybaptus ruficollis", "date": "2026/01/03", "source": "GBIF", "count": 1}, {"lat": 36.138648, "lng": 115.784858, "label": "Streptopelia orientalis", "date": "2026/01/02", "source": "GBIF", "count": 1}, {"lat": 30.206364, "lng": 120.883617, "label": "Circus spilonotus", "date": "2026/01/03", "source": "GBIF", "count": 1}, {"lat": 40.013544, "lng": 116.37955, "label": "Yungipicus canicapillus", "date": "2026/01/03", "source": "GBIF", "count": 1}, {"lat": 31.444871, "lng": 120.210498, "label": "Sinosuthora webbiana", "date": "2026/01/03", "source": "GBIF", "count": 1}, {"lat": 30.993291, "lng": 117.866586, "label": "Phylloscopus fuscatus", "date": "2026/01/03", "source": "GBIF", "count": 1}, {"lat": 36.138648, "lng": 115.784858, "label": "Sinosuthora webbiana", "date": "2026/01/02", "source": "GBIF", "count": 1}, {"lat": 31.074933, "lng": 121.176793, "label": "Gallinula chloropus", "date": "2026/01/03", "source": "GBIF", "count": 1}, {"lat": 40.013544, "lng": 116.37955, "label": "Picus canus", "date": "2026/01/03", "source": "GBIF", "count": 1}, {"lat": 31.444922, "lng": 120.210216, "label": "Spilopelia chinensis", "date": "2026/01/03", "source": "GBIF", "count": 1}, {"lat": 34.722555, "lng": 112.603827, "label": "Columba livia", "date": "2026/01/03", "source": "GBIF", "count": 1}, {"lat": 26.151531, "lng": 119.288942, "label": "Ixos mcclellandii", "date": "2026/01/02", "source": "GBIF", "count": 1}, {"lat": 22.65604, "lng": 114.39928, "label": "Gracupica nigricollis", "date": "2026/01/01", "source": "GBIF", "count": 1}, {"lat": 40.050667, "lng": 116.094155, "label": "Emberiza godlewskii", "date": "2026/01/01", "source": "GBIF", "count": 1}, {"lat": 36.53639, "lng": 116.831538, "label": "?", "date": "2026/01/01", "source": "GBIF", "count": 1}, {"lat": 33.240769, "lng": 107.534765, "label": "Spizixos semitorques", "date": "2026/01/01", "source": "GBIF", "count": 1}, {"lat": 22.637928, "lng": 113.864603, "label": "Ardea cinerea", "date": "2026/01/02", "source": "GBIF", "count": 1}, {"lat": 24.555404, "lng": 117.989835, "label": "Porphyrio porphyrio", "date": "2026/01/02", "source": "GBIF", "count": 1}, {"lat": 24.57987, "lng": 117.903275, "label": "Coracina melaschistos", "date": "2026/01/01", "source": "GBIF", "count": 1}, {"lat": 28.3712, "lng": 119.81772, "label": "Mareca penelope", "date": "2026/01/03", "source": "GBIF", "count": 1}, {"lat": 23.289702, "lng": 113.719609, "label": "Phoenicurus auroreus", "date": "2026/01/03", "source": "GBIF", "count": 1}, {"lat": 30.268056, "lng": 120.06629, "label": "Egretta garzetta", "date": "2026/01/03", "source": "GBIF", "count": 1}, {"lat": 30.268056, "lng": 120.06629, "label": "Spizixos semitorques", "date": "2026/01/03", "source": "GBIF", "count": 1}, {"lat": 19.124958, "lng": 108.656787, "label": "Dicaeum cruentatum", "date": "2026/01/02", "source": "GBIF", "count": 1}, {"lat": 32.119761, "lng": 118.578863, "label": "Phoenicurus auroreus", "date": "2026/01/04", "source": "GBIF", "count": 1}, {"lat": 18.790198, "lng": 110.516905, "label": "Acridotheres tristis", "date": "2026/01/03", "source": "GBIF", "count": 1}, {"lat": 26.160175, "lng": 119.286649, "label": "Aethopyga christinae", "date": "2026/01/01", "source": "GBIF", "count": 1}, {"lat": 26.066383, "lng": 119.260108, "label": "Lanius schach", "date": "2026/01/03", "source": "GBIF", "count": 1}, {"lat": 36.062194, "lng": 120.331386, "label": "Pycnonotus sinensis", "date": "2026/01/03", "source": "GBIF", "count": 1}, {"lat": 40.080109, "lng": 116.048818, "label": "Prunella montanella", "date": "2026/01/03", "source": "GBIF", "count": 1}, {"lat": 30.254034, "lng": 120.123515, "label": "Turdus naumanni", "date": "2026/01/02", "source": "GBIF", "count": 1}, {"lat": 35.993019, "lng": 119.404488, "label": "Spodiopsar cineraceus", "date": "2026/01/03", "source": "GBIF", "count": 1}, {"lat": 31.442899, "lng": 120.207856, "label": "Tachybaptus ruficollis", "date": "2026/01/03", "source": "GBIF", "count": 1}, {"lat": 34.549044, "lng": 112.476496, "label": "Tachybaptus ruficollis", "date": "2026/01/02", "source": "GBIF", "count": 1}, {"lat": 40.411057, "lng": 115.85835, "label": "Grus grus", "date": "2026/01/03", "source": "GBIF", "count": 1}, {"lat": 32.148957, "lng": 119.484191, "label": "Bombycilla japonica", "date": "2026/01/03", "source": "GBIF", "count": 1}, {"lat": 30.310051, "lng": 113.873853, "label": "Acridotheres cristatellus", "date": "2026/01/05", "source": "GBIF", "count": 1}, {"lat": 26.066392, "lng": 119.260117, "label": "Emberiza spodocephala", "date": "2026/01/03", "source": "GBIF", "count": 1}, {"lat": 35.979126, "lng": 119.403984, "label": "Gallinula chloropus", "date": "2026/01/02", "source": "GBIF", "count": 1}, {"lat": 36.551161, "lng": 116.824648, "label": "Fringilla montifringilla", "date": "2026/01/02", "source": "GBIF", "count": 1}, {"lat": 40.080906, "lng": 116.043889, "label": "Prunella montanella", "date": "2026/01/03", "source": "GBIF", "count": 1}, {"lat": 26.53798, "lng": 106.764397, "label": "Phoenicurus auroreus", "date": "2026/01/01", "source": "GBIF", "count": 1}, {"lat": 30.6446, "lng": 104.184005, "label": "Aegithalos concinnus", "date": "2026/01/02", "source": "GBIF", "count": 1}, {"lat": 24.554324, "lng": 117.995952, "label": "Hydroprogne caspia", "date": "2026/01/02", "source": "GBIF", "count": 1}, {"lat": 31.079615, "lng": 121.181512, "label": "Motacilla alba", "date": "2026/01/03", "source": "GBIF", "count": 1}, {"lat": 23.292764, "lng": 113.717135, "label": "Phoenicurus auroreus", "date": "2026/01/03", "source": "GBIF", "count": 1}, {"lat": 39.843183, "lng": 116.21656, "label": "Mergellus albellus", "date": "2026/01/03", "source": "GBIF", "count": 1}, {"lat": 26.026517, "lng": 119.20175, "label": "Copsychus saularis", "date": "2026/01/04", "source": "GBIF", "count": 1}, {"lat": 22.601453, "lng": 113.892056, "label": "Milvus migrans", "date": "2026/01/02", "source": "GBIF", "count": 1}, {"lat": 36.139748, "lng": 115.784605, "label": "Eophona migratoria", "date": "2026/01/02", "source": "GBIF", "count": 1}, {"lat": 25.14337, "lng": 102.741083, "label": "Spilopelia chinensis", "date": "2026/01/03", "source": "GBIF", "count": 1}, {"lat": 36.569827, "lng": 116.911258, "label": "Bubo bubo", "date": "2026/01/01", "source": "GBIF", "count": 1}, {"lat": 40.078859, "lng": 116.047822, "label": "Rhopophilus pekinensis", "date": "2026/01/03", "source": "GBIF", "count": 1}, {"lat": 30.738638, "lng": 114.157794, "label": "Falco peregrinus", "date": "2026/01/03", "source": "GBIF", "count": 1}, {"lat": 36.127052, "lng": 115.752251, "label": "Upupa epops", "date": "2026/01/02", "source": "GBIF", "count": 1}, {"lat": 31.609262, "lng": 120.730978, "label": "Phoenicurus auroreus", "date": "2026/01/03", "source": "GBIF", "count": 1}, {"lat": 40.013544, "lng": 116.37955, "label": "Alcedo atthis", "date": "2026/01/03", "source": "GBIF", "count": 1}, {"lat": 30.310045, "lng": 113.873818, "label": "Ardea cinerea", "date": "2026/01/05", "source": "GBIF", "count": 1}, {"lat": 36.065908, "lng": 120.33844, "label": "Turdus mandarinus", "date": "2026/01/02", "source": "GBIF", "count": 1}, {"lat": 30.268056, "lng": 120.06629, "label": "Garrulax perspicillatus", "date": "2026/01/03", "source": "GBIF", "count": 1}, {"lat": 31.538679, "lng": 120.482695, "label": "Lanius schach", "date": "2026/01/02", "source": "GBIF", "count": 1}, {"lat": 39.768369, "lng": 116.323549, "label": "Aegithalos glaucogularis", "date": "2026/01/01", "source": "GBIF", "count": 1}, {"lat": 23.291728, "lng": 113.717669, "label": "Passer montanus", "date": "2026/01/03", "source": "GBIF", "count": 1}, {"lat": 40.0125, "lng": 116.391869, "label": "Pycnonotus sinensis", "date": "2026/01/01", "source": "GBIF", "count": 1}, {"lat": 39.883887, "lng": 116.402197, "label": "Erithacus rubecula", "date": "2026/01/03", "source": "GBIF", "count": 1}, {"lat": 23.291414, "lng": 113.719524, "label": "Falco tinnunculus", "date": "2026/01/03", "source": "GBIF", "count": 1}, {"lat": 30.268056, "lng": 120.06629, "label": "Fulica atra", "date": "2026/01/03", "source": "GBIF", "count": 1}, {"lat": 40.013544, "lng": 116.37955, "label": "Fringilla montifringilla", "date": "2026/01/03", "source": "GBIF", "count": 1}, {"lat": 34.721324, "lng": 112.603569, "label": "Passer montanus", "date": "2026/01/03", "source": "GBIF", "count": 1}, {"lat": 30.267652, "lng": 113.803451, "label": "Lanius schach", "date": "2026/01/05", "source": "GBIF", "count": 1}, {"lat": 31.073927, "lng": 121.22843, "label": "Alcedo atthis", "date": "2026/01/05", "source": "GBIF", "count": 1}, {"lat": 22.675511, "lng": 113.848758, "label": "Turdus hortulorum", "date": "2026/01/02", "source": "GBIF", "count": 1}, {"lat": 22.523556, "lng": 113.988911, "label": "Spatula clypeata", "date": "2026/01/01", "source": "GBIF", "count": 1}, {"lat": 31.549868, "lng": 120.483067, "label": "Pica serica", "date": "2026/01/02", "source": "GBIF", "count": 1}, {"lat": 21.792786, "lng": 100.967189, "label": "Pitta sordida", "date": "2026/01/02", "source": "GBIF", "count": 1}, {"lat": 31.444336, "lng": 120.213558, "label": "Aegithalos glaucogularis", "date": "2026/01/03", "source": "GBIF", "count": 1}, {"lat": 39.884658, "lng": 116.413788, "label": "Spodiopsar cineraceus", "date": "2026/01/03", "source": "GBIF", "count": 1}, {"lat": 39.932305, "lng": 116.451378, "label": "Passer montanus", "date": "2026/01/04", "source": "GBIF", "count": 1}, {"lat": 30.318232, "lng": 113.888169, "label": "Spilopelia chinensis", "date": "2026/01/05", "source": "GBIF", "count": 1}, {"lat": 31.193544, "lng": 104.42231, "label": "Mergellus albellus", "date": "2026/01/02", "source": "GBIF", "count": 1}, {"lat": 23.29142, "lng": 113.719502, "label": "Falco tinnunculus", "date": "2026/01/03", "source": "GBIF", "count": 1}, {"lat": 35.614339, "lng": 110.66631, "label": "Garrulax davidi", "date": "2026/01/04", "source": "GBIF", "count": 1}, {"lat": 39.929474, "lng": 116.392463, "label": "Poecile palustris", "date": "2026/01/05", "source": "GBIF", "count": 1}, {"lat": 30.325082, "lng": 113.886025, "label": "Emberiza pusilla", "date": "2026/01/05", "source": "GBIF", "count": 1}, {"lat": 37.87418, "lng": 112.523705, "label": "Spilopelia chinensis", "date": "2026/01/05", "source": "GBIF", "count": 1}, {"lat": 35.961895, "lng": 119.420372, "label": "Turdus naumanni", "date": "2026/01/04", "source": "GBIF", "count": 1}, {"lat": 30.267692, "lng": 120.056413, "label": "Emberiza chrysophrys", "date": "2026/01/03", "source": "GBIF", "count": 1}, {"lat": 31.253151, "lng": 121.57298, "label": "Nycticorax nycticorax", "date": "2026/01/02", "source": "GBIF", "count": 1}, {"lat": 40.015671, "lng": 116.400208, "label": "Anthus spinoletta", "date": "2026/01/03", "source": "GBIF", "count": 1}, {"lat": 24.556004, "lng": 117.990051, "label": "Luscinia svecica", "date": "2026/01/02", "source": "GBIF", "count": 1}, {"lat": 25.085, "lng": 102.772, "label": "Pycnonotus xanthorrhous", "date": "2026/01/02", "source": "GBIF", "count": 1}, {"lat": 30.258114, "lng": 120.116643, "label": "Gallinula chloropus", "date": "2026/01/02", "source": "GBIF", "count": 1}, {"lat": 30.993806, "lng": 117.86561, "label": "Saxicola stejnegeri", "date": "2026/01/03", "source": "GBIF", "count": 1}, {"lat": 31.443104, "lng": 120.211854, "label": "Sinosuthora webbiana", "date": "2026/01/03", "source": "GBIF", "count": 1}, {"lat": 39.841037, "lng": 116.217532, "label": "Sinosuthora webbiana", "date": "2026/01/03", "source": "GBIF", "count": 1}, {"lat": 35.980335, "lng": 119.404114, "label": "Eophona migratoria", "date": "2026/01/01", "source": "GBIF", "count": 1}, {"lat": 40.019902, "lng": 116.383895, "label": "Gallinula chloropus", "date": "2026/01/01", "source": "GBIF", "count": 1}, {"lat": 19.124544, "lng": 108.654842, "label": "Copsychus saularis", "date": "2026/01/03", "source": "GBIF", "count": 1}, {"lat": 23.169988, "lng": 113.200101, "label": "Pericrocotus speciosus", "date": "2026/01/02", "source": "GBIF", "count": 1}, {"lat": 29.769283, "lng": 121.639175, "label": "Nycticorax nycticorax", "date": "2026/01/05", "source": "GBIF", "count": 1}, {"lat": 35.981804, "lng": 119.402649, "label": "Ardea cinerea", "date": "2026/01/05", "source": "GBIF", "count": 1}, {"lat": 18.742122, "lng": 108.840708, "label": "Harpactes erythrocephalus", "date": "2026/01/05", "source": "GBIF", "count": 1}]